[
  {"id":"KLAX","icao":"KLAX","iata":"LAX","name":"Los Angeles International Airport","city":"Los Angeles","country":"United States","latitude":33.9425,"longitude":-118.4081,"elevation":125,"timezone":"America/Los_Angeles"},
  {"id":"KJFK","icao":"KJFK","iata":"JFK","name":"John F. Kennedy International Airport","city":"New York","country":"United States","latitude":40.6413,"longitude":-73.7781,"elevation":13,"timezone":"America/New_York"},
  {"id":"KORD","icao":"KORD","iata":"ORD","name":"O'Hare International Airport","city":"Chicago","country":"United States","latitude":41.9742,"longitude":-87.9073,"elevation":672,"timezone":"America/Chicago"},
  {"id":"KATL","icao":"KATL","iata":"ATL","name":"Hartsfield-Jackson Atlanta International Airport","city":"Atlanta","country":"United States","latitude":33.6407,"longitude":-84.4277,"elevation":1026,"timezone":"America/New_York"},
  {"id":"KDFW","icao":"KDFW","iata":"DFW","name":"Dallas/Fort Worth International Airport","city":"Dallas","country":"United States","latitude":32.8998,"longitude":-97.0403,"elevation":607,"timezone":"America/Chicago"},
  {"id":"KDEN","icao":"KDEN","iata":"DEN","name":"Denver International Airport","city":"Denver","country":"United States","latitude":39.8561,"longitude":-104.6737,"elevation":5431,"timezone":"America/Denver"},
  {"id":"KSFO","icao":"KSFO","iata":"SFO","name":"San Francisco International Airport","city":"San Francisco","country":"United States","latitude":37.6213,"longitude":-122.379,"elevation":13,"timezone":"America/Los_Angeles"},
  {"id":"KLAS","icao":"KLAS","iata":"LAS","name":"Harry Reid International Airport","city":"Las Vegas","country":"United States","latitude":36.084,"longitude":-115.1537,"elevation":2181,"timezone":"America/Los_Angeles"},
  {"id":"KMIA","icao":"KMIA","iata":"MIA","name":"Miami International Airport","city":"Miami","country":"United States","latitude":25.7959,"longitude":-80.287,"elevation":8,"timezone":"America/New_York"},
  {"id":"KSEA","icao":"KSEA","iata":"SEA","name":"Seattle-Tacoma International Airport","city":"Seattle","country":"United States","latitude":47.4502,"longitude":-122.3088,"elevation":433,"timezone":"America/Los_Angeles"},
  {"id":"KPHX","icao":"KPHX","iata":"PHX","name":"Phoenix Sky Harbor International Airport","city":"Phoenix","country":"United States","latitude":33.4373,"longitude":-112.0078,"elevation":1135,"timezone":"America/Phoenix"},
  {"id":"KEWR","icao":"KEWR","iata":"EWR","name":"Newark Liberty International Airport","city":"Newark","country":"United States","latitude":40.6895,"longitude":-74.1745,"elevation":18,"timezone":"America/New_York"},
  {"id":"KBOS","icao":"KBOS","iata":"BOS","name":"Boston Logan International Airport","city":"Boston","country":"United States","latitude":42.3656,"longitude":-71.0096,"elevation":20,"timezone":"America/New_York"},
  {"id":"KMSP","icao":"KMSP","iata":"MSP","name":"Minneapolis-Saint Paul International Airport","city":"Minneapolis","country":"United States","latitude":44.8848,"longitude":-93.2223,"elevation":841,"timezone":"America/Chicago"},
  {"id":"KDTW","icao":"KDTW","iata":"DTW","name":"Detroit Metropolitan Airport","city":"Detroit","country":"United States","latitude":42.2162,"longitude":-83.3554,"elevation":645,"timezone":"America/Detroit"},
  {"id":"KFLL","icao":"KFLL","iata":"FLL","name":"Fort Lauderdale-Hollywood International Airport","city":"Fort Lauderdale","country":"United States","latitude":26.0742,"longitude":-80.1506,"elevation":9,"timezone":"America/New_York"},
  {"id":"KPHL","icao":"KPHL","iata":"PHL","name":"Philadelphia International Airport","city":"Philadelphia","country":"United States","latitude":39.8744,"longitude":-75.2424,"elevation":36,"timezone":"America/New_York"},
  {"id":"KLGA","icao":"KLGA","iata":"LGA","name":"LaGuardia Airport","city":"New York","country":"United States","latitude":40.7769,"longitude":-73.874,"elevation":22,"timezone":"America/New_York"},
  {"id":"KIAD","icao":"KIAD","iata":"IAD","name":"Washington Dulles International Airport","city":"Washington","country":"United States","latitude":38.9531,"longitude":-77.4565,"elevation":313,"timezone":"America/New_York"},
  {"id":"KDCA","icao":"KDCA","iata":"DCA","name":"Ronald Reagan Washington National Airport","city":"Washington","country":"United States","latitude":38.8521,"longitude":-77.0377,"elevation":15,"timezone":"America/New_York"},
  {"id":"KSAN","icao":"KSAN","iata":"SAN","name":"San Diego International Airport","city":"San Diego","country":"United States","latitude":32.7336,"longitude":-117.1897,"elevation":17,"timezone":"America/Los_Angeles"},
  {"id":"KTPA","icao":"KTPA","iata":"TPA","name":"Tampa International Airport","city":"Tampa","country":"United States","latitude":27.9755,"longitude":-82.5332,"elevation":26,"timezone":"America/New_York"},
  {"id":"KPDX","icao":"KPDX","iata":"PDX","name":"Portland International Airport","city":"Portland","country":"United States","latitude":45.5898,"longitude":-122.5951,"elevation":31,"timezone":"America/Los_Angeles"},
  {"id":"KSTL","icao":"KSTL","iata":"STL","name":"St. Louis Lambert International Airport","city":"St. Louis","country":"United States","latitude":38.7487,"longitude":-90.37,"elevation":618,"timezone":"America/Chicago"},
  {"id":"KBWI","icao":"KBWI","iata":"BWI","name":"Baltimore/Washington International Airport","city":"Baltimore","country":"United States","latitude":39.1754,"longitude":-76.6684,"elevation":146,"timezone":"America/New_York"},
  {"id":"EGLL","icao":"EGLL","iata":"LHR","name":"Heathrow Airport","city":"London","country":"United Kingdom","latitude":51.47,"longitude":-0.4543,"elevation":83,"timezone":"Europe/London"},
  {"id":"LFPG","icao":"LFPG","iata":"CDG","name":"Charles de Gaulle Airport","city":"Paris","country":"France","latitude":49.0097,"longitude":2.5479,"elevation":392,"timezone":"Europe/Paris"},
  {"id":"EDDF","icao":"EDDF","iata":"FRA","name":"Frankfurt Airport","city":"Frankfurt","country":"Germany","latitude":50.0379,"longitude":8.5622,"elevation":364,"timezone":"Europe/Berlin"},
  {"id":"EHAM","icao":"EHAM","iata":"AMS","name":"Amsterdam Airport Schiphol","city":"Amsterdam","country":"Netherlands","latitude":52.3086,"longitude":4.7639,"elevation":-11,"timezone":"Europe/Amsterdam"},
  {"id":"LEMD","icao":"LEMD","iata":"MAD","name":"Adolfo Suárez Madrid–Barajas Airport","city":"Madrid","country":"Spain","latitude":40.4983,"longitude":-3.5676,"elevation":1998,"timezone":"Europe/Madrid"},
  {"id":"LIRF","icao":"LIRF","iata":"FCO","name":"Leonardo da Vinci–Fiumicino Airport","city":"Rome","country":"Italy","latitude":41.8003,"longitude":12.2389,"elevation":13,"timezone":"Europe/Rome"},
  {"id":"EDDM","icao":"EDDM","iata":"MUC","name":"Munich Airport","city":"Munich","country":"Germany","latitude":48.3537,"longitude":11.775,"elevation":1487,"timezone":"Europe/Berlin"},
  {"id":"EGKK","icao":"EGKK","iata":"LGW","name":"Gatwick Airport","city":"London","country":"United Kingdom","latitude":51.1537,"longitude":-0.1821,"elevation":202,"timezone":"Europe/London"},
  {"id":"LEBL","icao":"LEBL","iata":"BCN","name":"Barcelona–El Prat Airport","city":"Barcelona","country":"Spain","latitude":41.2971,"longitude":2.0785,"elevation":12,"timezone":"Europe/Madrid"},
  {"id":"LSZH","icao":"LSZH","iata":"ZRH","name":"Zurich Airport","city":"Zurich","country":"Switzerland","latitude":47.4647,"longitude":8.5492,"elevation":1416,"timezone":"Europe/Zurich"},
  {"id":"LOWW","icao":"LOWW","iata":"VIE","name":"Vienna International Airport","city":"Vienna","country":"Austria","latitude":48.1103,"longitude":16.5697,"elevation":600,"timezone":"Europe/Vienna"},
  {"id":"EKCH","icao":"EKCH","iata":"CPH","name":"Copenhagen Airport","city":"Copenhagen","country":"Denmark","latitude":55.618,"longitude":12.656,"elevation":17,"timezone":"Europe/Copenhagen"},
  {"id":"ENGM","icao":"ENGM","iata":"OSL","name":"Oslo Gardermoen Airport","city":"Oslo","country":"Norway","latitude":60.1939,"longitude":11.1004,"elevation":681,"timezone":"Europe/Oslo"},
  {"id":"ESSA","icao":"ESSA","iata":"ARN","name":"Stockholm Arlanda Airport","city":"Stockholm","country":"Sweden","latitude":59.6519,"longitude":17.9186,"elevation":137,"timezone":"Europe/Stockholm"},
  {"id":"EFHK","icao":"EFHK","iata":"HEL","name":"Helsinki-Vantaa Airport","city":"Helsinki","country":"Finland","latitude":60.3172,"longitude":24.9633,"elevation":179,"timezone":"Europe/Helsinki"},
  {"id":"EIDW","icao":"EIDW","iata":"DUB","name":"Dublin Airport","city":"Dublin","country":"Ireland","latitude":53.4213,"longitude":-6.2701,"elevation":242,"timezone":"Europe/Dublin"},
  {"id":"EBBR","icao":"EBBR","iata":"BRU","name":"Brussels Airport","city":"Brussels","country":"Belgium","latitude":50.9014,"longitude":4.4844,"elevation":184,"timezone":"Europe/Brussels"},
  {"id":"LPPT","icao":"LPPT","iata":"LIS","name":"Lisbon Portela Airport","city":"Lisbon","country":"Portugal","latitude":38.7813,"longitude":-9.1359,"elevation":374,"timezone":"Europe/Lisbon"},
  {"id":"LGAV","icao":"LGAV","iata":"ATH","name":"Athens International Airport","city":"Athens","country":"Greece","latitude":37.9364,"longitude":23.9445,"elevation":308,"timezone":"Europe/Athens"},
  {"id":"LTFM","icao":"LTFM","iata":"IST","name":"Istanbul Airport","city":"Istanbul","country":"Turkey","latitude":41.2753,"longitude":28.7519,"elevation":325,"timezone":"Europe/Istanbul"},
  {"id":"VHHH","icao":"VHHH","iata":"HKG","name":"Hong Kong International Airport","city":"Hong Kong","country":"Hong Kong","latitude":22.308,"longitude":113.9185,"elevation":28,"timezone":"Asia/Hong_Kong"},
  {"id":"RJTT","icao":"RJTT","iata":"HND","name":"Tokyo Haneda Airport","city":"Tokyo","country":"Japan","latitude":35.5494,"longitude":139.7798,"elevation":35,"timezone":"Asia/Tokyo"},
  {"id":"RJAA","icao":"RJAA","iata":"NRT","name":"Narita International Airport","city":"Tokyo","country":"Japan","latitude":35.7647,"longitude":140.3864,"elevation":141,"timezone":"Asia/Tokyo"},
  {"id":"WSSS","icao":"WSSS","iata":"SIN","name":"Singapore Changi Airport","city":"Singapore","country":"Singapore","latitude":1.3644,"longitude":103.9915,"elevation":22,"timezone":"Asia/Singapore"},
  {"id":"RKSI","icao":"RKSI","iata":"ICN","name":"Incheon International Airport","city":"Seoul","country":"South Korea","latitude":37.4602,"longitude":126.4407,"elevation":23,"timezone":"Asia/Seoul"},
  {"id":"ZBAA","icao":"ZBAA","iata":"PEK","name":"Beijing Capital International Airport","city":"Beijing","country":"China","latitude":40.0799,"longitude":116.6031,"elevation":116,"timezone":"Asia/Shanghai"},
  {"id":"ZSPD","icao":"ZSPD","iata":"PVG","name":"Shanghai Pudong International Airport","city":"Shanghai","country":"China","latitude":31.1443,"longitude":121.8083,"elevation":13,"timezone":"Asia/Shanghai"},
  {"id":"OMDB","icao":"OMDB","iata":"DXB","name":"Dubai International Airport","city":"Dubai","country":"United Arab Emirates","latitude":25.2528,"longitude":55.3644,"elevation":62,"timezone":"Asia/Dubai"},
  {"id":"VTBS","icao":"VTBS","iata":"BKK","name":"Suvarnabhumi Airport","city":"Bangkok","country":"Thailand","latitude":13.69,"longitude":100.7501,"elevation":5,"timezone":"Asia/Bangkok"},
  {"id":"WMKK","icao":"WMKK","iata":"KUL","name":"Kuala Lumpur International Airport","city":"Kuala Lumpur","country":"Malaysia","latitude":2.7456,"longitude":101.71,"elevation":69,"timezone":"Asia/Kuala_Lumpur"},
  {"id":"VIDP","icao":"VIDP","iata":"DEL","name":"Indira Gandhi International Airport","city":"Delhi","country":"India","latitude":28.5562,"longitude":77.1,"elevation":777,"timezone":"Asia/Kolkata"},
  {"id":"VABB","icao":"VABB","iata":"BOM","name":"Chhatrapati Shivaji Maharaj International Airport","city":"Mumbai","country":"India","latitude":19.0896,"longitude":72.8656,"elevation":39,"timezone":"Asia/Kolkata"},
  {"id":"RPLL","icao":"RPLL","iata":"MNL","name":"Ninoy Aquino International Airport","city":"Manila","country":"Philippines","latitude":14.5086,"longitude":121.0197,"elevation":75,"timezone":"Asia/Manila"},
  {"id":"WIII","icao":"WIII","iata":"CGK","name":"Soekarno-Hatta International Airport","city":"Jakarta","country":"Indonesia","latitude":-6.1256,"longitude":106.6558,"elevation":34,"timezone":"Asia/Jakarta"},
  {"id":"VDPP","icao":"VDPP","iata":"PNH","name":"Phnom Penh International Airport","city":"Phnom Penh","country":"Cambodia","latitude":11.5466,"longitude":104.8442,"elevation":40,"timezone":"Asia/Phnom_Penh"},
  {"id":"YSSY","icao":"YSSY","iata":"SYD","name":"Sydney Kingsford Smith Airport","city":"Sydney","country":"Australia","latitude":-33.9461,"longitude":151.1772,"elevation":21,"timezone":"Australia/Sydney"},
  {"id":"YMML","icao":"YMML","iata":"MEL","name":"Melbourne Airport","city":"Melbourne","country":"Australia","latitude":-37.669,"longitude":144.841,"elevation":434,"timezone":"Australia/Melbourne"},
  {"id":"YBBN","icao":"YBBN","iata":"BNE","name":"Brisbane Airport","city":"Brisbane","country":"Australia","latitude":-27.3842,"longitude":153.1175,"elevation":13,"timezone":"Australia/Brisbane"},
  {"id":"YPPH","icao":"YPPH","iata":"PER","name":"Perth Airport","city":"Perth","country":"Australia","latitude":-31.9403,"longitude":115.9669,"elevation":67,"timezone":"Australia/Perth"},
  {"id":"NZAA","icao":"NZAA","iata":"AKL","name":"Auckland Airport","city":"Auckland","country":"New Zealand","latitude":-37.0082,"longitude":174.785,"elevation":23,"timezone":"Pacific/Auckland"},
  {"id":"NZWN","icao":"NZWN","iata":"WLG","name":"Wellington International Airport","city":"Wellington","country":"New Zealand","latitude":-41.3272,"longitude":174.8053,"elevation":41,"timezone":"Pacific/Auckland"},
  {"id":"SBGR","icao":"SBGR","iata":"GRU","name":"São Paulo/Guarulhos International Airport","city":"São Paulo","country":"Brazil","latitude":-23.4356,"longitude":-46.4731,"elevation":2459,"timezone":"America/Sao_Paulo"},
  {"id":"SAEZ","icao":"SAEZ","iata":"EZE","name":"Ministro Pistarini International Airport","city":"Buenos Aires","country":"Argentina","latitude":-34.8222,"longitude":-58.5358,"elevation":67,"timezone":"America/Argentina/Buenos_Aires"},
  {"id":"SCEL","icao":"SCEL","iata":"SCL","name":"Arturo Merino Benítez International Airport","city":"Santiago","country":"Chile","latitude":-33.393,"longitude":-70.7858,"elevation":1555,"timezone":"America/Santiago"},
  {"id":"SKBO","icao":"SKBO","iata":"BOG","name":"El Dorado International Airport","city":"Bogotá","country":"Colombia","latitude":4.7016,"longitude":-74.1469,"elevation":8361,"timezone":"America/Bogota"},
  {"id":"SPJC","icao":"SPJC","iata":"LIM","name":"Jorge Chávez International Airport","city":"Lima","country":"Peru","latitude":-12.0219,"longitude":-77.1143,"elevation":113,"timezone":"America/Lima"},
  {"id":"MMMX","icao":"MMMX","iata":"MEX","name":"Mexico City International Airport","city":"Mexico City","country":"Mexico","latitude":19.4363,"longitude":-99.0721,"elevation":7316,"timezone":"America/Mexico_City"},
  {"id":"MMUN","icao":"MMUN","iata":"CUN","name":"Cancún International Airport","city":"Cancún","country":"Mexico","latitude":21.0365,"longitude":-86.8771,"elevation":22,"timezone":"America/Cancun"},
  {"id":"CYYZ","icao":"CYYZ","iata":"YYZ","name":"Toronto Pearson International Airport","city":"Toronto","country":"Canada","latitude":43.6777,"longitude":-79.6248,"elevation":569,"timezone":"America/Toronto"},
  {"id":"CYVR","icao":"CYVR","iata":"YVR","name":"Vancouver International Airport","city":"Vancouver","country":"Canada","latitude":49.1967,"longitude":-123.1815,"elevation":14,"timezone":"America/Vancouver"},
  {"id":"CYUL","icao":"CYUL","iata":"YUL","name":"Montréal–Trudeau International Airport","city":"Montreal","country":"Canada","latitude":45.4706,"longitude":-73.7408,"elevation":118,"timezone":"America/Toronto"},
  {"id":"CYYC","icao":"CYYC","iata":"YYC","name":"Calgary International Airport","city":"Calgary","country":"Canada","latitude":51.1225,"longitude":-114.0133,"elevation":3557,"timezone":"America/Edmonton"},
  {"id":"CYEG","icao":"CYEG","iata":"YEG","name":"Edmonton International Airport","city":"Edmonton","country":"Canada","latitude":53.3097,"longitude":-113.5797,"elevation":2373,"timezone":"America/Edmonton"},
  {"id":"FAOR","icao":"FAOR","iata":"JNB","name":"O.R. Tambo International Airport","city":"Johannesburg","country":"South Africa","latitude":-26.1392,"longitude":28.246,"elevation":5558,"timezone":"Africa/Johannesburg"},
  {"id":"HECA","icao":"HECA","iata":"CAI","name":"Cairo International Airport","city":"Cairo","country":"Egypt","latitude":30.1219,"longitude":31.4056,"elevation":382,"timezone":"Africa/Cairo"},
  {"id":"DNMM","icao":"DNMM","iata":"LOS","name":"Murtala Muhammed International Airport","city":"Lagos","country":"Nigeria","latitude":6.5774,"longitude":3.3212,"elevation":135,"timezone":"Africa/Lagos"},
  {"id":"HKJK","icao":"HKJK","iata":"NBO","name":"Jomo Kenyatta International Airport","city":"Nairobi","country":"Kenya","latitude":-1.3192,"longitude":36.9278,"elevation":5327,"timezone":"Africa/Nairobi"},
  {"id":"GMMN","icao":"GMMN","iata":"CMN","name":"Mohammed V International Airport","city":"Casablanca","country":"Morocco","latitude":33.3675,"longitude":-7.5897,"elevation":656,"timezone":"Africa/Casablanca"}
]





